<?xml version="1.0" encoding="UTF-8"?>
<kml xmlns="http://www.opengis.net/kml/2.2">
  <Document>
    <name>WEST DELHI MAP</name>
    <description/>
    <Style id="icon-1603-673AB7-nodesc-normal">
      <IconStyle>
        <color>ffb73a67</color>
        <scale>1</scale>
        <Icon>
          <href>https://www.gstatic.com/mapspro/images/stock/503-wht-blank_maps.png</href>
        </Icon>
      </IconStyle>
      <LabelStyle>
        <scale>0</scale>
      </LabelStyle>
      <BalloonStyle>
        <text><![CDATA[<h3>$[name]</h3>]]></text>
      </BalloonStyle>
    </Style>
    <Style id="icon-1603-673AB7-nodesc-highlight">
      <IconStyle>
        <color>ffb73a67</color>
        <scale>1</scale>
        <Icon>
          <href>https://www.gstatic.com/mapspro/images/stock/503-wht-blank_maps.png</href>
        </Icon>
      </IconStyle>
      <LabelStyle>
        <scale>1</scale>
      </LabelStyle>
      <BalloonStyle>
        <text><![CDATA[<h3>$[name]</h3>]]></text>
      </BalloonStyle>
    </Style>
    <StyleMap id="icon-1603-673AB7-nodesc">
      <Pair>
        <key>normal</key>
        <styleUrl>#icon-1603-673AB7-nodesc-normal</styleUrl>
      </Pair>
      <Pair>
        <key>highlight</key>
        <styleUrl>#icon-1603-673AB7-nodesc-highlight</styleUrl>
      </Pair>
    </StyleMap>
    <Style id="poly-000000-1200-77-nodesc-normal">
      <LineStyle>
        <color>ff000000</color>
        <width>1.2</width>
      </LineStyle>
      <PolyStyle>
        <color>4d000000</color>
        <fill>1</fill>
        <outline>1</outline>
      </PolyStyle>
      <BalloonStyle>
        <text><![CDATA[<h3>$[name]</h3>]]></text>
      </BalloonStyle>
    </Style>
    <Style id="poly-000000-1200-77-nodesc-highlight">
      <LineStyle>
        <color>ff000000</color>
        <width>1.8</width>
      </LineStyle>
      <PolyStyle>
        <color>4d000000</color>
        <fill>1</fill>
        <outline>1</outline>
      </PolyStyle>
      <BalloonStyle>
        <text><![CDATA[<h3>$[name]</h3>]]></text>
      </BalloonStyle>
    </Style>
    <StyleMap id="poly-000000-1200-77-nodesc">
      <Pair>
        <key>normal</key>
        <styleUrl>#poly-000000-1200-77-nodesc-normal</styleUrl>
      </Pair>
      <Pair>
        <key>highlight</key>
        <styleUrl>#poly-000000-1200-77-nodesc-highlight</styleUrl>
      </Pair>
    </StyleMap>
    <Folder>
      <name>Untitled layer</name>
      <Placemark>
        <name>Dwarka</name>
        <styleUrl>#icon-1603-673AB7-nodesc</styleUrl>
        <Point>
          <coordinates>
            77.0499762,28.5822999,0
          </coordinates>
        </Point>
      </Placemark>
      <Placemark>
        <name>Janakpuri</name>
        <styleUrl>#icon-1603-673AB7-nodesc</styleUrl>
        <Point>
          <coordinates>
            77.0878385,28.621899,0
          </coordinates>
        </Point>
      </Placemark>
      <Placemark>
        <name>Vikaspuri</name>
        <styleUrl>#icon-1603-673AB7-nodesc</styleUrl>
        <Point>
          <coordinates>
            77.07206,28.6386438,0
          </coordinates>
        </Point>
      </Placemark>
      <Placemark>
        <name>Uttam Nagar</name>
        <styleUrl>#icon-1603-673AB7-nodesc</styleUrl>
        <Point>
          <coordinates>
            77.0549901,28.6195574,0
          </coordinates>
        </Point>
      </Placemark>
      <Placemark>
        <name>Tilak Nagar</name>
        <styleUrl>#icon-1603-673AB7-nodesc</styleUrl>
        <Point>
          <coordinates>
            77.0866811,28.6389315,0
          </coordinates>
        </Point>
      </Placemark>
      <Placemark>
        <name>Manglapuri</name>
        <styleUrl>#icon-1603-673AB7-nodesc</styleUrl>
        <Point>
          <coordinates>
            77.092513,28.6000436,0
          </coordinates>
        </Point>
      </Placemark>
      <Placemark>
        <name>Dwarka Mor</name>
        <styleUrl>#icon-1603-673AB7-nodesc</styleUrl>
        <Point>
          <coordinates>
            77.0277157,28.6230719,0
          </coordinates>
        </Point>
      </Placemark>
      <Placemark>
        <name>Patel Nagar</name>
        <styleUrl>#icon-1603-673AB7-nodesc</styleUrl>
        <Point>
          <coordinates>
            77.16462,28.6554182,0
          </coordinates>
        </Point>
      </Placemark>
      <Placemark>
        <name>Ashok Nagar</name>
        <styleUrl>#icon-1603-673AB7-nodesc</styleUrl>
        <Point>
          <coordinates>
            77.1014442,28.6373773,0
          </coordinates>
        </Point>
      </Placemark>
      <Placemark>
        <name>Paschim Vihar</name>
        <styleUrl>#icon-1603-673AB7-nodesc</styleUrl>
        <Point>
          <coordinates>
            77.0928656,28.6691255,0
          </coordinates>
        </Point>
      </Placemark>
      <Placemark>
        <name>Punjabi Bagh</name>
        <styleUrl>#icon-1603-673AB7-nodesc</styleUrl>
        <Point>
          <coordinates>
            77.1241557,28.6619753,0
          </coordinates>
        </Point>
      </Placemark>
      <Placemark>
        <name>Nangloi</name>
        <styleUrl>#icon-1603-673AB7-nodesc</styleUrl>
        <Point>
          <coordinates>
            77.0675607,28.6820444,0
          </coordinates>
        </Point>
      </Placemark>
      <Placemark>
        <name>Rajouri Garden</name>
        <styleUrl>#icon-1603-673AB7-nodesc</styleUrl>
        <Point>
          <coordinates>
            77.1224529,28.6417002,0
          </coordinates>
        </Point>
      </Placemark>
      <Placemark>
        <name>Mayapuri</name>
        <styleUrl>#icon-1603-673AB7-nodesc</styleUrl>
        <Point>
          <coordinates>
            77.1207739,28.6230738,0
          </coordinates>
        </Point>
      </Placemark>
      <Placemark>
        <name>Dashrath Puri</name>
        <styleUrl>#icon-1603-673AB7-nodesc</styleUrl>
        <Point>
          <coordinates>
            77.0872644,28.6035503,0
          </coordinates>
        </Point>
      </Placemark>
      <Placemark>
        <name>Hari Nagar</name>
        <styleUrl>#icon-1603-673AB7-nodesc</styleUrl>
        <Point>
          <coordinates>
            77.1108681,28.6248596,0
          </coordinates>
        </Point>
      </Placemark>
      <Placemark>
        <name>Shadipur</name>
        <styleUrl>#icon-1603-673AB7-nodesc</styleUrl>
        <Point>
          <coordinates>
            77.1562196,28.651027,0
          </coordinates>
        </Point>
      </Placemark>
      <Placemark>
        <name>Kirti Nagar</name>
        <styleUrl>#icon-1603-673AB7-nodesc</styleUrl>
        <Point>
          <coordinates>
            77.1436998,28.6493776,0
          </coordinates>
        </Point>
      </Placemark>
      <Placemark>
        <name>Karol Bagh</name>
        <styleUrl>#icon-1603-673AB7-nodesc</styleUrl>
        <Point>
          <coordinates>
            77.1888201,28.6550458,0
          </coordinates>
        </Point>
      </Placemark>
      <Placemark>
        <name>New Rajinder Nagar</name>
        <styleUrl>#icon-1603-673AB7-nodesc</styleUrl>
        <Point>
          <coordinates>
            77.1792825,28.6349338,0
          </coordinates>
        </Point>
      </Placemark>
      <Placemark>
        <name>MTMD1</name>
        <styleUrl>#poly-000000-1200-77-nodesc</styleUrl>
        <Polygon>
          <outerBoundaryIs>
            <LinearRing>
              <tessellate>1</tessellate>
              <coordinates>
                77.0217096,28.6855398,0
                76.9753611,28.6759015,0
                76.9588816,28.5885131,0
                77.0405924,28.5809762,0
                76.9717562,28.5515773,0
                77.0659164,28.5129756,0
                77.0699046,28.5220987,0
                77.0918122,28.5154985,0
                77.0989572,28.5248849,0
                77.1353495,28.5728358,0
                77.1659052,28.5954466,0
                77.1604121,28.6011738,0
                77.1957653,28.6257392,0
                77.2057306,28.6545131,0
                77.1408426,28.6768051,0
                77.0797336,28.6903716,0
                77.0217096,28.6855398,0
              </coordinates>
            </LinearRing>
          </outerBoundaryIs>
        </Polygon>
      </Placemark>
    </Folder>
  </Document>
</kml>
